{"type":"FeatureCollection","features":[{"type":"Feature","properties":{"name":"I AM Yoga","address":"680 Yonge Street, Toronto, Ontario M4Y 2A6","phone":"(416) 551-0068","description":"I AM Yoga is a yoga and Pilates studio located in downtown Toronto, offering a variety of classes including hot yoga, reformer Pilates, and mat Pilates, suitable for practitioners of all levels."},"geometry":{"coordinates":[-79.38574440083805,43.667304888092104],"type":"Point"},"id":0},{"type":"Feature","properties":{"name":"Mindful Movement","address":"68 Scollard Street, Suite 301, Toronto, Ontario M5R 1G2","phone":"(647) 250-7205","description":"Mindful Movement Centre is a comprehensive yoga and Pilates studio in downtown Toronto, offering private and group classes focused on mind-body balance and mindful movement."},"geometry":{"coordinates":[-79.38826846562561,43.6693375913153],"type":"Point"},"id":1},{"type":"Feature","properties":{"name":"Yoga Tree Bay-dundas","addresss":"123 Dundas St W, Toronto, ON M5G 1C4","phone":"(416) 205-9642","description":"Yoga Tree offers a variety of yoga classes, including Hatha, Vinyasa, and hot yoga, aiming to provide a comprehensive yoga experience for practitioners."},"geometry":{"coordinates":[-79.3854762126954,43.655199205625536],"type":"Point"},"id":2},{"type":"Feature","properties":{"name":"The Yoga Lounge","address":"80 Sherbourne St, Toronto, ON M5B 2B5","phone":"/","description":"Your Boutique Yoga Studio in the heart of Downtown Toronto"},"geometry":{"coordinates":[-79.36895716830291,43.65247988792751],"type":"Point"},"id":3},{"type":"Feature","properties":{"name":"Be Hot Yoga","address":"43 Colborne St, Toronto, ON M5E 1E3","phone":4162032382,"description":"The staff are super approachable and the facilities are constantly upgraded. The owner cares deeply about the health and well-being of the community who practices there and has gone above "},"geometry":{"coordinates":[-79.37815482025269,43.64867714340198],"type":"Point"},"id":4},{"type":"Feature","properties":{"name":"Yoga Tree","address":"123 Spadina Avenue, Toronto, Ontario M5V 2L7","phone":"(416) 603-9642","description":"Yoga Tree offers a variety of yoga classes, including Hatha, Vinyasa, and hot yoga, aiming to provide a comprehensive yoga experience for practitioners."},"geometry":{"coordinates":[-79.39609208783693,43.64720941324887],"type":"Point"},"id":5},{"type":"Feature","properties":{"name":"AT OM YOGA + PLATES","address":"250 Augusta Ave Suite 204A, Toronto, ON M5T 2L7","phone":"(416) 856-6593","description":"Lovely teachers in a beautiful space with small classes."},"geometry":{"coordinates":[-79.40298526503084,43.65552074480226],"type":"Point"},"id":6},{"type":"Feature","properties":{"name":"THETA","address":"4 Robert St, Toronto, ON M5S 2K3","phone":"(289) 228-3171","description":"Offers online classes"},"geometry":{"coordinates":[-79.40221571034856,43.6580575122554],"type":"Point"},"id":7},{"type":"Feature","properties":{"name":"Sivananda Yoga","address":"77 Harbord Street, Toronto, Ontario M5S 1G4","phone":"(416) 966-9642","description":"Sivananda Yoga Vedanta Centre offers traditional yoga classes, focusing on classical yoga practices and philosophy."},"geometry":{"coordinates":[-79.40364314410006,43.662615931930844],"type":"Point"},"id":8},{"type":"Feature","properties":{"name":"Kula Yoga Studio","address":"304 Brunswick Avenue, Toronto, Ontario M5S 2M7","phone":"(416) 922-5852","description":"Kula Yoga Studio provides a variety of yoga classes, aiming to offer an inclusive and supportive practice space for the community."},"geometry":{"coordinates":[-79.40641022834343,43.66598313371745],"type":"Point"},"id":9}]}